

[
    {"id":1,"name":"Kopella Primary School",	"longitude":"-26.42602", "latitude":	"25.52697", "address":"South Africa","image_link":	"./assets/images1.jpeg"},
    {"id":2	,"name":"ABEL MOTSHOANE HIGH SCHOOL",	"longitude":"-25.48117487", "latitude":	"28.04401927", "address":"ROLIHLAHLA AVENUE","image_link":	"https://images.app.goo.gl/bMUDvwdbcsBPyYEk9"},
        {"id":3,"name":"AMOGELANG SECONDARY SCHOOL",	"longitude":"-25.4826614", "latitude":"28.12333526", "address":"FIDEL-CASTRO STREET","image_link":	"https://images.app.goo.gl/GHV5q7T4wKxAVWZv5"},
            {"id":4,"name":"AYANDA PRIMARY SCHOOL",	"longitude":"-25.57552142", "latitude":"28.06129817", "address":"KLIPRUISFONTEIN","image_link":	"https://images.app.goo.gl/P21fUHK9CSnfgZBJA"},
                {"id":5,"name":"BABINAPHUTI SECONDARY SCHOOL",	"longitude":"-25.48836261", "latitude":	"28.10344595", "address":"BLOCK BB","image_link":	"https://images.app.goo.gl/n5RPoadWYXQeye1M7"},
                    {"id":6,"name":"BACHANA MOKWENA PRIMARY SCHOOL",	"longitude":"-25.54965713", "latitude":	"27.98531917", "address":"MAMASIYANOKA","image_link":	"https://images.app.goo.gl/pS87LHXEK8nxAbav6"},
                        {"id":7	,"name":"BALESENG PRIMARY SCHOOL",	"longitude":"-25.54684823", "latitude":	"28.10364757", "address":"BLOCK L","image_link":	"https://images.app.goo.gl/Q1SjD8qV7ccZYpQb7"},
                            {"id":8,"name":"BODUBELO PRIMARY",	"longitude":"-25.58774094", "latitude":	"27.97678756", "address":"MOKGOKO STREET","image_link":	"https://images.app.goo.gl/sZWq19vpHnkjY4gV8"},
                                {"id":9,"name":"BOEPATHUTSE JUNIOR SECONDARY",	"longitude":"-25.51139602", "latitude":	"28.10427152", "address":"MOSENENE STREET","image_link":	"https://images.app.goo.gl/ugGhKya32y7kTmtK8"},
                                    {"id":10,"name":"BOIKANYO PRIMARY SCHOOL",	"longitude":"-26.22247468", "latitude":	"27.86051377", "address":"KGOTLENG STREET","image_link":	"https://images.app.goo.gl/kTB715xLwRnCVd3s8"},
                                        {"id":11,"name":"BOIKANYO PRIMARY SCHOOL",	"longitude":"-25.70694667"	, "latitude":	"28.36593", "address":"MODISE STREET","image_link":	"https://images.app.goo.gl/mNEB9y57FbBZXRvs8"},
                                            {"id":12,"name":"BOKAMOSO PRIMARY SCHOOL",	"longitude":"-25.72149833", "latitude":	"28.39282333", "address":"MORULA STREET","image_link":	"https://images.app.goo.gl/Nkp1dDzZ3ttm7Vz96"},
                                                {"id":13,"name":"BOTSALO PRIMARY SCHOOL",	"longitude":"-25.70407944", "latitude":	"28.37940725", "address":"MAMELODI","image_link":	"https://images.app.goo.gl/dqwCxhMFSLz7XP9w6"},
                                                    {"id":14,"name":"BOTSE-BOTSE SECONDARY",	"longitude":"-25.71016518", "latitude":	"28.34401771", "address":"DIKGAKGATHE STREET","image_link":	"https://images.app.goo.gl/6GrTmogj5QpKtrM97"},
                                                        {"id":15,"name":"CENTRAL SECONDARY SCHOOL",	"longitude":"-25.71421225", "latitude":	"28.35873019", "address":"MORULA STREET","image_link":	"https://images.app.goo.gl/HHByL1XsCZvwTp5K8"},
                                                            {"id":16,"name":"DA MOKOMA SECONDARY SCHOOL",	"longitude":"-25.70510788", "latitude":	"28.38311409", "address":"MAGAGULA STREET","image_link":	"https://images.app.goo.gl/9N3RwiNNsf3wSRDD7"},
                                                                {"id":17,"name":"DC MARIVATE JUNIOR SECONDARY SCHOOL",	"longitude":"-25.71617383", "latitude":"28.3695141", "address":"TSAMAYA ROAD","image_link":	"https://images.app.goo.gl/kM8LAUDmeKvt34HT6"},
                                                                    {"id":18,"name":"DIKGAKOLOGO PRIMARY SCHOOL",	"longitude":"-25.7037473", "latitude":	"28.34861376", "address":"NELLMAPIUS ROAD","image_link":	"https://images.app.goo.gl/MuHX79BUbFPS4Nb4A"},
                                                                        {"id":19,"name":"DIMAKATSO PRIMARY SCHOOL",	"longitude":"-25.734028"	, "latitude":	"28.384412", "address":"MAMELODI","image_link":	"https://images.app.goo.gl/R6PKNEwzfMSxyFP46"},
                                                                            {"id":20,"name":"DITHABANENG PRIMARY SCHOOL",	"longitude":"-25.73670591", "latitude":	"28.35053148",  "address":"MAMELODI","image_link":	"https://images.app.goo.gl/BBVy9gaPooA6dSVg7"},
                                                                                {"id":21,"name":"DITSHABA PRIMARY SCHOOL",	"longitude":"-25.48117487"	, "latitude":	"28.04401927", "address":"ROLIHLAHLA AVENUE","image_link":	"https://images.app.goo.gl/7UzvPHXxpKuR7Ycz6"},
                                                                                    {"id":22,"name":"DR AT MOREOSELE SECONDARY SCHOOL",	"longitude":"-25.48117487", "latitude":	"28.04401927", "address":"ROLIHLAHLA AVENUE","image_link":	"https://images.app.goo.gl/2eA1qxi3huMuELYt9"},
                                                                                        {"id":23,"name":"EMA PRIMARY SCHOOL",	"longitude":"-25.48117487", "latitude":	"28.04401927", "address":"ROLIHLAHLA AVENUE","image_link":	"https://images.app.goo.gl/BBVy9gaPooA6dSVg7"},
                                                                                            {"id":24,"name":"ENTOKOZWENI PRIMARY SCHOOL",	"longitude":"-25.48117487", "latitude":	"28.04401927", "address":"ROLIHLAHLA AVENUE","image_link":	"https://images.app.goo.gl/7UzvPHXxpKuR7Ycz6"},
                                                                                                {"id":25,"name":"FR. SMANGALISO MKHATSHWA SECONDARY SCHOOL",	"longitude":"-25.48117487", "latitude":	"28.04401927", "address":"ROLIHLAHLA AVENUE","image_link":	"https://images.app.goo.gl/2eA1qxi3huMuELYt9"},
                                                                                                    {"id":26,"name":"FUNEKILE SECONDARY SCHOOL",	"longitude":"-25.48117487", "latitude":	"28.04401927", "address":"ROLIHLAHLA AVENUE","image_link":	"https://images.app.goo.gl/BBVy9gaPooA6dSVg7"},
                                                                                                        {"id":27,"name":"GALEBOE MIDDLE SCHOOL",	"longitude":"-25.48117487", "latitude":	"28.04401927", "address":"ROLIHLAHLA AVENUE","image_link":	"https://images.app.goo.gl/7UzvPHXxpKuR7Ycz6"},
                                                                                                            {"id":28,"name":"HL SETLALENTOA SECONDARY SCHOOL",	"longitude":"-25.48117487", "latitude":	"28.04401927", "address":"ROLIHLAHLA AVENUE","image_link":	"https://images.app.goo.gl/2eA1qxi3huMuELYt9"},
                                                                                                                {"id":29,"name":"l. R. LESOLANG SECONDARY SCHOOL",	"longitude":"-25.48117487", "latitude":	"28.04401927", "address":"ROLIHLAHLA AVENUE","image_link":	"https://images.app.goo.gl/BBVy9gaPooA6dSVg7"},
                                                                                                                    {"id":30,"name":"IKAGENG PRIMARY SCHOOL",	"longitude":"-25.48117487", "latitude":	"28.04401927", "address":"ROLIHLAHLA AVENUE","image_link":	"https://images.app.goo.gl/7UzvPHXxpKuR7Ycz6"},
                                                                                                                        {"id":31,"name":"IKELENG PRIMARY SCHOOL",	"longitude":"-25.48117487", "latitude":	"28.04401927", "address":"ROLIHLAHLA AVENUE","image_link":	"https://images.app.goo.gl/2eA1qxi3huMuELYt9"},
{"id":32,"name":"ITUMELENG MADIBA PRIMARY SCHOOL",	"longitude":"-25.48117487", "latitude":	"28.04401927", "address":"ROLIHLAHLA AVENUE","image_link":	"https://images.app.goo.gl/BBVy9gaPooA6dSVg7"},
{"id":33,"name":"KGADIME MATSEPE SECONDARY",	"longitude":"-25.48117487"	, "latitude":	"28.04401927", "address":"ROLIHLAHLA AVENUE","image_link":	"https://images.app.goo.gl/7UzvPHXxpKuR7Ycz6"},
{"id":34,"name":"KGOMOTSO SECONDARY SCHOOL",	"longitude":"-25.48117487", "latitude":	"28.04401927", "address":"ROLIHLAHLA AVENUE","image_link":	"https://images.app.goo.gl/2eA1qxi3huMuELYt9"},
{"id":35,"name":"KGOTLELELANG PRIMARY SCHOOL",	"longitude":"-25.48117487", "latitude":	"28.04401927", "address":"ROLIHLAHLA AVENUE","image_link":	"https://images.app.goo.gl/7UzvPHXxpKuR7Ycz6"},
{"id":36,"name":"KHENSANI PRIMARY SCHOOL",	"longitude":"-25.48117487", "latitude":	"28.04401927", "address":"ROLIHLAHLA AVENUE","image_link":	"https://images.app.goo.gl/BBVy9gaPooA6dSVg7"},
{"id":37,"name":"KONDELELANI PRIMARY SCHOOL",	"longitude":"-25.48117487", "latitude":	"28.04401927", "address":"ROLIHLAHLA AVENUE","image_link":	"https://images.app.goo.gl/7UzvPHXxpKuR7Ycz6"},
{"id":38,"name":"KOPA DILALELO PRIMARY SCHOOL",	"longitude":"-25.48117487", "latitude":	"28.04401927", "address":"ROLIHLAHLA AVENUE","image_link":	"https://images.app.goo.gl/BBVy9gaPooA6dSVg7"},
{"id":39,"name":"KULANI PRIMARY SCHOOL",	"longitude":"-25.48117487", "latitude":	"28.04401927", "address":"ROLIHLAHLA AVENUE","image_link":	"https://images.app.goo.gl/7UzvPHXxpKuR7Ycz6"},
{"id":40,"name":"KUTUNG PRIMARY SCHOOL",	"longitude":"-25.48117487", "latitude":	"28.04401927", "address":"ROLIHLAHLA AVENUE","image_link":	"https://images.app.goo.gl/2eA1qxi3huMuELYt9"},
{"id":41,"name":"L.c. HOLELE SECONDARY SCHOOL",	"longitude":"-25.48117487", "latitude":	"28.04401927", "address":"ROLIHLAHLA AVENUE","image_link":	"https://images.app.goo.gl/BBVy9gaPooA6dSVg7"},
{"id":42,"name":"SITE NAME",	"longitude":"-25.48117487", "latitude":	"28.04401927", "address":"ROLIHLAHLA AVENUE","image_link":	"https://images.app.goo.gl/7UzvPHXxpKuR7Ycz6"},
{"id":43,"name":"LEBOGANG PRIMARY SCHOOL",	"longitude":"-25.48117487", "latitude":	"28.04401927", "address": "ROLIHLAHLA AVENUE"  ,"image_link":	"https://images.app.goo.gl/2eA1qxi3huMuELYt9"},
{"id":44,"name":"LEKGALONG PRIMARY",	"longitude":"-25.48117487"	, "latitude":	"28.04401927", "address":"","image_link":	"https://images.app.goo.gl/7UzvPHXxpKuR7Ycz6"},
{"id":45,"name":"LESEDI LA DITSHABA",	"longitude":"-25.48117487", "latitude":	"28.04401927", "address":"ROLIHLAHLA AVENUE","image_link":	"https://images.app.goo.gl/BBVy9gaPooA6dSVg7"},
{"id":46,"name":"LESEDI POTLANA PRIMARY",	"longitude":"-25.48117487", "latitude":	"28.04401927", "address":"ROLIHLAHLA AVENUE","image_link":	"https://images.app.goo.gl/7UzvPHXxpKuR7Ycz6"},
{"id":47,"name":"LESEGO PRIMARY",	"longitude":"-25.48117487", "latitude":	"28.04401927", "address":"ROLIHLAHLA AVENUE","image_link":	"https://images.app.goo.gl/2eA1qxi3huMuELYt9"},
{"id":48,"name":"LESOLANG PRIMARY SCHOOL",	"longitude":"-25.48117487", "latitude":	"28.04401927", "address":"ROLIHLAHLA AVENUE","image_link":	"https://images.app.goo.gl/BBVy9gaPooA6dSVg7"},
{"id":49,"name":"LETHABONG SECONDARY SCHOOL",	"longitude":"-25.48117487", "latitude":	"28.04401927", "address":"ROLIHLAHLA AVENUE","image_link":	"https://images.app.goo.gl/7UzvPHXxpKuR7Ycz6"},
{"id":50,"name":"LETSIBOGO SECONDARY",	"longitude":"-25.48117487", "latitude":	"28.04401927", "address":"ROLIHLAHLA AVENUE","image_link":	"https://images.app.goo.gl/BBVy9gaPooA6dSVg7"},
{"id":51,"name":"LOWE PRIMARY SCHOOL",	"longitude":"-25.48117487", "latitude":	"28.04401927", "address":"ROLIHLAHLA AVENUE","image_link":	"https://images.app.goo.gl/7UzvPHXxpKuR7Ycz6"},
{"id":52,"name":"LUCAS MOTSHABANOSI SECONDARY SCHOOL",	"longitude":"-25.48117487", "latitude":	"28.04401927", "address":"ROLIHLAHLA AVENUE","image_link":	"https://images.app.goo.gl/BBVy9gaPooA6dSVg7"},
{"id":53,"name":"M.J. MGIDI SECONDARY SCHOOL",	"longitude":"-25.48117487", "latitude":	"28.04401927", "address":"ROLIHLAHLA AVENUE","image_link":	"https://images.app.goo.gl/7UzvPHXxpKuR7Ycz6"},
{"id":54,"name":"MABOPANE HIGH SCHOOL",	"longitude":"-25.48117487", "latitude":	"28.04401927", "address":"ROLIHLAHLA AVENUE","image_link":	"https://images.app.goo.gl/BBVy9gaPooA6dSVg7"},
{"id":55,"name":"MAFIJMBUKA PRIMARY SCHOOL",	"longitude":"-25.48117487", "latitude":	"28.04401927", "address":"ROLIHLAHLA AVENUE","image_link":	"https://images.app.goo.gl/7UzvPHXxpKuR7Ycz6"},
{"id":56,"name":"MAHLWARENG PRIMARY SCHOOL",	"longitude":"-25.48117487", "latitude":	"28.04401927", "address":"ROLIHLAHLA AVENUE","image_link":	"https://images.app.goo.gl/2eA1qxi3huMuELYt9"},
{"id":57,"name":"MAKHOSINI COMBINED SECONDARY SCHOOL",	"longitude":"-25.48117487", "latitude":	"28.04401927", "address":"ROLIHLAHLA AVENUE","image_link":	"https://images.app.goo.gl/BBVy9gaPooA6dSVg7"},
{"id":58,"name":"MAPENANE PRIMARY SCHOOL",	"longitude":"-25.48117487", "latitude":	"28.04401927", "address":"ROLIHLAHLA AVENUE","image_link":	"https://images.app.goo.gl/7UzvPHXxpKuR7Ycz6"},
{"id":59,"name":"MAROPENG PRIMARY SCHOOL",	"longitude":"-25.48117487", "latitude":	"28.04401927", "address":"ROLIHLAHLA AVENUE","image_link":	"https://images.app.goo.gl/BBVy9gaPooA6dSVg7"},
{"id":60,"name":"MARI-ILA PRIMARY SCHOOL",	"longitude":"-25.48117487", "latitude":	"28.04401927", "address":"ROLIHLAHLA AVENUE","image_link":	"https://images.app.goo.gl/7UzvPHXxpKuR7Ycz6"},
{"id":61,"name":"MATHAGA PRIMARY SCHOOL",	"longitude":"-25.48117487", "latitude":	"28.04401927", "address":"ROLIHLAHLA AVENUE","image_link":	"https://images.app.goo.gl/2eA1qxi3huMuELYt9"},
{"id":62,"name":"MATSEKE PRIMARY SCHOOL",	"longitude":"-25.48117487", "latitude":	"28.04401927", "address":"ROLIHLAHLA AVENUE","image_link":	"https://images.app.goo.gl/BBVy9gaPooA6dSVg7"},
{"id":63,"name":"MEETSENG PRIMARY SCHOOL",	"longitude":"-25.48117487", "latitude":	"28.04401927", "address":"ROLIHLAHLA AVENUE","image_link":	"https://images.app.goo.gl/7UzvPHXxpKuR7Ycz6"},
{"id":64,"name":"MEMEZELO SECONDARY SCHOOL",	"longitude":"-25.48117487", "latitude":	"28.04401927", "address":"ROLIHLAHLA AVENUE","image_link":	"https://images.app.goo.gl/2eA1qxi3huMuELYt9"},
{"id":65,"name":"MLOKOTWA-DUBE PRIMARY SCHOOL",	"longitude":"-25.48117487", "latitude":	"28.04401927", "address":"ROLIHLAHLA AVENUE","image_link":	"https://images.app.goo.gl/BBVy9gaPooA6dSVg7"},
{"id":66,"name":"MMABANA PRIMARY SCHOOL",	"longitude":"-25.48117487", "latitude":	"28.04401927", "address":"ROLIHLAHLA AVENUE","image_link":	"https://images.app.goo.gl/7UzvPHXxpKuR7Ycz6"},
{"id":67,"name":"MODIRI SECONDARY SCHOOL",	"longitude":"-25.48117487", "latitude":	"28.04401927", "address":"ROLIHLAHLA AVENUE","image_link":	"https://images.app.goo.gl/WSxEVT7GzC85eabB7"},
{"id":68,"name":"MODISELLE PRIMARY SCHOOL",	"longitude":"-25.48117487", "latitude":	"28.04401927", "address":"ROLIHLAHLA AVENUE","image_link":	"https://images.app.goo.gl/BBVy9gaPooA6dSVg7"},
{"id":69,"name":"MORULA VIEW PRIMARY SCHOOL",	"longitude":"-25.48117487", "latitude":	"28.04401927", "address":"ROLIHLAHLA AVENUE","image_link":	"https://images.app.goo.gl/7UzvPHXxpKuR7Ycz6"},
{"id":70,"name":"NCHUNCHEKO PRIMARY SCHOOL",	"longitude":"-25.48117487", "latitude":	"28.04401927", "address":"ROLIHLAHLA AVENUE","image_link":	"https://images.app.goo.gl/2eA1qxi3huMuELYt9"},
{"id":71,"name":"NGAKA MASEKO HIGH SCHOOL",	"longitude":"-25.48117487", "latitude":	"28.04401927", "address":"ROLIHLAHLA AVENUE","image_link":	"https://images.app.goo.gl/BBVy9gaPooA6dSVg7"},
{"id":72,"name":"NICK MPSHE SECONDARY SCHOOL",	"longitude":"-25.48117487", "latitude":	"28.04401927", "address":"ROLIHLAHLA AVENUE","image_link":	"https://images.app.goo.gl/7UzvPHXxpKuR7Ycz6"},
{"id":73,"name":"NM TSUENE HIGH SCHOOL",	"longitude":"-25.48117487", "latitude":	"28.04401927", "address":"ROLIHLAHLA AVENUE","image_link":	"https://images.app.goo.gl/2eA1qxi3huMuELYt9"},
{"id":74,"name":"NONG PRIMARY SCHOOL",	"longitude":"-25.48117487", "latitude":	"28.04401927", "address":"ROLIHLAHLA AVENUE","image_link":	"https://images.app.goo.gl/BBVy9gaPooA6dSVg7"},
{"id":75,"name":"NTSAKO SECONDARY SCHOOL",	"longitude":"-25.48117487", "latitude":	"28.04401927", "address":"ROLIHLAHLA AVENUE","image_link":	"https://images.app.goo.gl/7UzvPHXxpKuR7Ycz6"},
{"id":76,"name":"NTSHA PEU PRIMARY SCHOOL",	"longitude":"-25.48117487", "latitude":	"28.04401927", "address":"ROLIHLAHLA AVENUE","image_link":	"https://images.app.goo.gl/2eA1qxi3huMuELYt9"},
{"id":77,"name":"PADISAGO PRIMARY SCHOOL",	"longitude":"-25.48117487", "latitude":	"28.04401927", "address":"ROLIHLAHLA AVENUE","image_link":	"https://images.app.goo.gl/BBVy9gaPooA6dSVg7"},
{"id":78,"name":"PELOTONA MIDDLE SCHOOL",	"longitude":"-25.48117487", "latitude":	"28.04401927", "address":"ROLIHLAHLA AVENUE","image_link":	"https://images.app.goo.gl/7UzvPHXxpKuR7Ycz6"},
{"id":79,"name":"PHAKAMONOLA PRIMARY SCHOOL",	"longitude":"-25.48117487", "latitude":	"28.04401927", "address":"ROLIHLAHLA AVENUE","image_link":	"https://images.app.goo.gl/2eA1qxi3huMuELYt9"},
{"id":80,"name":"PHILEMON MONTSHO PRIMARY SCHOOL",	"longitude":"-25.48117487", "latitude":	"28.04401927", "address":"ROLIHLAHLA AVENUE","image_link":	"https://images.app.goo.gl/BBVy9gaPooA6dSVg7"},
{"id":81,"name":"PHUTHANANG PRIMARY SCHOOL",	"longitude":"-25.48117487", "latitude":	"28.04401927", "address":"ROLIHLAHLA AVENUE","image_link":	"https://images.app.goo.gl/7UzvPHXxpKuR7Ycz6"},
{"id":82,"name":"PULAMADIBOGO PRIMARY SCHOOL",	"longitude":"-25.48117487", "latitude":	"28.04401927", "address":"ROLIHLAHLA AVENUE","image_link":	"https://images.app.goo.gl/WSxEVT7GzC85eabB7"},
{"id":83,"name":"RADINEO PRIMARY SCHOOL",	"longitude":"-25.48117487", "latitude":	"28.04401927", "address":"ROLIHLAHLA AVENUE","image_link":	"https://images.app.goo.gl/BBVy9gaPooA6dSVg7"},
{"id":84,"name":"RAIKANA PRIMARY SCHOOL",	"longitude":"-25.48117487", "latitude":	"28.04401927", "address":"ROLIHLAHLA AVENUE","image_link":	"https://images.app.goo.gl/7UzvPHXxpKuR7Ycz6"},
{"id":85,"name":"RAKALE THABONG PRIMARY SCHOOL",	"longitude":"-25.48117487", "latitude":	"28.04401927", "address":"ROLIHLAHLA AVENUE","image_link":	"https://images.app.goo.gl/BBVy9gaPooA6dSVg7"},
{"id":86,"name":"RANTAILANE HIGH SCHOOL",	"longitude":"-25.48117487", "latitude":	"28.04401927", "address":"ROLIHLAHLA AVENUE","image_link":	"https://images.app.goo.gl/7UzvPHXxpKuR7Ycz6"},
{"id":87,"name":"REABETSWE PRIMARY SCHOOL",	"longitude":"-25.48117487", "latitude":	"28.04401927", "address":"ROLIHLAHLA AVENUE","image_link":	"https://images.app.goo.gl/BBVy9gaPooA6dSVg7"},
{"id":88,"name":"REATLEGILE PRIMARY SCHOOL",	"longitude":"-25.48117487", "latitude":	"28.04401927", "address":"ROLIHLAHLA AVENUE","image_link":	"https://images.app.goo.gl/7UzvPHXxpKuR7Ycz6"},
{"id":89,"name":"REFALOTSE PRIMARY SCHOOL",	"longitude":"-25.48117487", "latitude":	"28.04401927", "address":"ROLIHLAHLA AVENUE","image_link":	"https://images.app.goo.gl/2eA1qxi3huMuELYt9"},
{"id":90,"name":"REITUMETSE SECONDARY SCHOOL",	"longitude":"-25.48117487", "latitude":	"28.04401927", "address":"ROLIHLAHLA AVENUE","image_link":	"https://images.app.goo.gl/BBVy9gaPooA6dSVg7"},
{"id":91,"name":"REKOPANTSE PRIMARY SCHOOL",	"longitude":"-25.48117487", "latitude":	"28.04401927", "address":"ROLIHLAHLA AVENUE","image_link":	"https://images.app.goo.gl/7UzvPHXxpKuR7Ycz6"},
{"id":92,"name":"RETHOMILE PRIMARY SCHOOL",	"longitude":"-25.48117487", "latitude":	"28.04401927", "address":"ROLIHLAHLA AVENUE","image_link":	"https://images.app.goo.gl/2eA1qxi3huMuELYt9"},
{"id":93,"name":"RETLILE PRIMARY SCHOOL",	"longitude":"-25.48117487", "latitude":	"28.04401927", "address":"ROLIHLAHLA AVENUE","image_link":	"https://images.app.goo.gl/BBVy9gaPooA6dSVg7"},
{"id":94,"name":"RHULANI PRIMARY SCHOOL",	"longitude":"-25.48117487", "latitude":	"28.04401927", "address":"ROLIHLAHLA AVENUE","image_link":	"https://images.app.goo.gl/7UzvPHXxpKuR7Ycz6"},
{"id":95,"name":"RIVONINGO PRIMARY SCHOOL",	"longitude":"-25.48117487", "latitude":	"28.04401927", "address":"ROLIHLAHLA AVENUE","image_link":	"https://images.app.goo.gl/2eA1qxi3huMuELYt9"},
{"id":96,"name":"RODNEY MOKOENA PREPARATORY SCHOOL",	"longitude":"-25.48117487", "latitude":	"28.04401927", "address":"ROLIHLAHLA AVENUE","image_link":	"https://images.app.goo.gl/BBVy9gaPooA6dSVg7"},
{"id":97,"name":"RS MALULEKE PRIMARY SCHOOL",	"longitude":"-25.48117487", "latitude":	"28.04401927", "address":"ROLIHLAHLA AVENUE","image_link":	"https://images.app.goo.gl/7UzvPHXxpKuR7Ycz6"},
{"id":98,"name":"SEMPHATO PRIMARY SCHOOL",	"longitude":"-25.48117487", "latitude":	"28.04401927", "address":"ROLIHLAHLA AVENUE","image_link":	"https://images.app.goo.gl/2eA1qxi3huMuELYt9"},
{"id":99,"name":"REFALOTSE",	"longitude":"-25.48117487", "latitude":	"28.04401927", "address":"ROLIHLAHLA AVENUE","image_link":	"://images.app.goo.gl/1rhkXm59xVBngqD37"},
{"id":100,"name":"SEETSA-SA-KWEDI PRIMARY",	"longitude":"-25.48117487", "latitude":	"28.04401927", "address":"ROLIHLAHLA AVENUE","image_link":	"https://images.app.goo.gl/7UzvPHXxpKuR7Ycz6"},
{"id":101,"name":"TIAMOKO PRIMARY SCHOOL",	"longitude":"-25.48117487", "latitude":	"28.04401927", "address":"ROLIHLAHLA AVENUE","image_link":	"https://images.app.goo.gl/WSxEVT7GzC85eabB7"},
{"id":102,"name":"SOSHANGAAN PRIMARY SCHOOL",	"longitude":"-25.48117487", "latitude":	"28.04401927", "address":"ROLIHLAHLA AVENUE","image_link":	"https://images.app.goo.gl/BBVy9gaPooA6dSVg7"},
{"id":103,"name":"THORNTREE PRIMARY SCHOOL",	"longitude":"-25.48117487", "latitude":	"28.04401927", "address":"ROLIHLAHLA AVENUE","image_link":	"https://images.app.goo.gl/7UzvPHXxpKuR7Ycz6"},
{"id":104,"name":"MODIRI TECHNICAL SCHOOL",	"longitude":"-25.48117487", "latitude":	"28.04401927", "address":"ROLIHLAHLA AVENUE","image_link":	"https://images.app.goo.gl/WSxEVT7GzC85eabB7"},
{"id":105,"name":"SEMPHATO PRIMARY SCHOOL",	"longitude":"-25.48117487", "latitude":	"28.04401927", "address":"ROLIHLAHLA AVENUE","image_link":	"https://images.app.goo.gl/BBVy9gaPooA6dSVg7"},
{"id":106,"name":"MONONONG PRIMARY SCHOOL",	"longitude":"-25.48117487", "latitude":	"28.04401927", "address":"ROLIHLAHLA AVENUE","image_link":	"https://images.app.goo.gl/7UzvPHXxpKuR7Ycz6"},
{"id":107,"name":"MODIRI TECHNICAL SCHOOL",	"longitude":"-25.48117487", "latitude":	"28.04401927", "address":"ROLIHLAHLA AVENUE","image_link":	"https://images.app.goo.gl/WSxEVT7GzC85eabB7"},
{"id":108,"name":"SEMPHATO PRIMARY SCHOOL",	"longitude":"-25.48117487", "latitude":	"28.04401927", "address":"ROLIHLAHLA AVENUE","image_link":	"https://images.app.goo.gl/BBVy9gaPooA6dSVg7"},
{"id":109,"name":"JAN KOTLOLO PRIMARY SCHOOL",	"longitude":"-25.48117487", "latitude":	"28.04401927", "address":"ROLIHLAHLA AVENUE","image_link":	"https://images.app.goo.gl/7UzvPHXxpKuR7Ycz6"},
{"id":110,"name":"MODIRI TECHNICAL SCHOOL",	"longitude":"-25.48117487", "latitude":	"28.04401927", "address":"ROLIHLAHLA AVENUE","image_link":	"https://images.app.goo.gl/WSxEVT7GzC85eabB7"},
{"id":111,"name":"MOTHEO PRIMARY SCHOOL",	"longitude":"-25.48117487", "latitude":	"28.04401927", "address":"ROLIHLAHLA AVENUE","image_link":	"https://images.app.goo.gl/BBVy9gaPooA6dSVg7"},
{"id":112,"name":"SEETSA-SA-KWEDI PRIMARY",	"longitude":"-25.48117487", "latitude":	"28.04401927", "address":"ROLIHLAHLA AVENUE","image_link":	"https://images.app.goo.gl/7UzvPHXxpKuR7Ycz6"},
{"id":113,"name":"ST FRANCIS PRIMARY SCHOOL",	"longitude":"-25.48117487", "latitude":	"28.04401927", "address":"ROLIHLAHLA AVENUE","image_link":	"https://images.app.goo.gl/WSxEVT7GzC85eabB7"},
{"id":114,"name":"MORETELE PRIMARY SCHOOL",	"longitude":"-25.48117487", "latitude":	"28.04401927", "address":"ROLIHLAHLA AVENUE","image_link":	"https://images.app.goo.gl/BBVy9gaPooA6dSVg7"},
{"id":115,"name":"BAJABULILE PRIMARY SCHOOL",	"longitude":"-25.48117487", "latitude":	"28.04401927", "address":"ROLIHLAHLA AVENUE","image_link":	"https://images.app.goo.gl/7UzvPHXxpKuR7Ycz6"},
{"id":116,"name":"ST FRANCIS PRIMARY SCHOOL",	"longitude":"-25.48117487", "latitude":	"28.04401927", "address":"ROLIHLAHLA AVENUE","image_link":	"https://images.app.goo.gl/WSxEVT7GzC85eabB7"},
{"id":117,"name":"TIAMOKO PRIMARY SCHOOL",	"longitude":"-25.48117487", "latitude":	"28.04401927", "address":"ROLIHLAHLA AVENUE","image_link":	"https://images.app.goo.gl/BBVy9gaPooA6dSVg7"},
{"id":118,"name":"SOSHANGAAN PRIMARY SCHOOL",	"longitude":"-25.48117487", "latitude":	"28.04401927", "address":"ROLIHLAHLA AVENUE","image_link":	"https://images.app.goo.gl/7UzvPHXxpKuR7Ycz6"},
{"id":119,"name":"THORNTREE PRIMARY SCHOOL",	"longitude":"-25.48117487", "latitude":	"28.04401927", "address":"ROLIHLAHLA AVENUE","image_link":	"https://images.app.goo.gl/WSxEVT7GzC85eabB7"},
{"id":120,"name":"TSHWANE CHRISTIAN SCHOOL",	"longitude":"-25.48117487", "latitude":	"28.04401927", "address":"ROLIHLAHLA AVENUE","image_link":	"https://images.app.goo.gl/BBVy9gaPooA6dSVg7"},
{"id":121,"name":"SEMPHATO PRIMARY SCHOOL",	"longitude":"-25.48117487", "latitude":	"28.04401927", "address":"ROLIHLAHLA AVENUE","image_link":	"https://images.app.goo.gl/7UzvPHXxpKuR7Ycz6"},
{"id":122,"name":"MODIRI TECHNICAL SCHOOL",	"longitude":"-25.48117487", "latitude":	"28.04401927", "address":"ROLIHLAHLA AVENUE","image_link":	"https://images.app.goo.gl/WSxEVT7GzC85eabB7"},
{"id":123,"name":"BAJABULILE PRIMARY SCHOOL",	"longitude":"-25.48117487", "latitude":	"28.04401927", "address":"ROLIHLAHLA AVENUE","image_link":	"https://images.app.goo.gl/BBVy9gaPooA6dSVg7"},
{"id":124,"name":"African Leadership Academy",	"longitude":"-25.48117487", "latitude":	"28.04401927", "address":"ROLIHLAHLA AVENUE","image_link":	"https://images.app.goo.gl/7UzvPHXxpKuR7Ycz6"},
{"id":125,"name":"JAN KOTLOLO PRIMARY SCHOOL",	"longitude":"-25.48117487", "latitude":	"28.04401927", "address":"ROLIHLAHLA AVENUE","image_link":	"https://images.app.goo.gl/WSxEVT7GzC85eabB7"},
{"id":126,"name":"SEETSA-SA-KWEDI PRIMARY",	"longitude":"-25.48117487", "latitude":	"28.04401927", "address":"ROLIHLAHLA AVENUE","image_link":	"https://images.app.goo.gl/BBVy9gaPooA6dSVg7"},
{"id":127,"name":"MORETELE PRIMARY SCHOOL",	"longitude":"-25.48117487", "latitude":	"28.04401927", "address":"ROLIHLAHLA AVENUE","image_link":	"https://images.app.goo.gl/7UzvPHXxpKuR7Ycz6"},
{"id":128,"name":"MOTHEO PRIMARY SCHOOL",	"longitude":"-25.48117487", "latitude":	"28.04401927", "address":"ROLIHLAHLA AVENUE","image_link":	"https://images.app.goo.gl/WSxEVT7GzC85eabB7"},
{"id":129,"name":"MONONONG PRIMARY SCHOOL",	"longitude":"-25.48117487", "latitude":	"28.04401927", "address":"ROLIHLAHLA AVENUE","image_link":	"https://images.app.goo.gl/BBVy9gaPooA6dSVg7"},
{"id":130,"name":"BAJABULILE PRIMARY SCHOOL",	"longitude":"-25.48117487", "latitude":	"28.04401927", "address":"ROLIHLAHLA AVENUE","image_link":	"https://images.app.goo.gl/7UzvPHXxpKuR7Ycz6"},
{"id":131,"name":"THORNTREE PRIMARY SCHOOL",	"longitude":"-25.48117487", "latitude":	"28.04401927", "address":"ROLIHLAHLA AVENUE","image_link":	"https://images.app.goo.gl/WSxEVT7GzC85eabB7"},
{"id":132,"name":"TIAMOKO PRIMARY SCHOOL",	"longitude":"-25.48117487", "latitude":	"28.04401927", "address":"ROLIHLAHLA AVENUE","image_link":	"https://images.app.goo.gl/BBVy9gaPooA6dSVg7"},
{"id":133,"name":"SOSHANGAAN PRIMARY SCHOOL",	"longitude":"-25.48117487", "latitude":	"28.04401927", "address":"ROLIHLAHLA AVENUE","image_link":	"https://images.app.goo.gl/7UzvPHXxpKuR7Ycz6"},
{"id":134,"name":"THORNTREE PRIMARY SCHOOL",	"longitude":"-25.48117487", "latitude":	"28.04401927", "address":"ROLIHLAHLA AVENUEv","image_link":"https://images.app.goo.gl/WSxEVT7GzC85eabB7"},
{"id":135,"name":"TSHWANE CHRISTIAN SCHOOL",	"longitude":"-25.48117487", "latitude":	"28.04401927", "address":"ROLIHLAHLA AVENUE","image_link":	"https://images.app.goo.gl/BBVy9gaPooA6dSVg7"},
{"id":136,"name":"SEMPHATO PRIMARY SCHOOL",	"longitude":"-25.48117487", "latitude":	"28.04401927", "address":"ROLIHLAHLA AVENUE","image_link":	"https://images.app.goo.gl/7UzvPHXxpKuR7Ycz6"},
{"id":137,"name":"MODIRI TECHNICAL SCHOOL",	"longitude":"-25.48117487", "latitude":	"28.04401927", "address":"ROLIHLAHLA AVENUE","image_link":	"https://images.app.goo.gl/WSxEVT7GzC85eabB7"},
{"id":138,"name":"BAJABULILE PRIMARY SCHOOL",	"longitude":"-25.48117487", "latitude":	"28.04401927", "address":"ROLIHLAHLA AVENUE","image_link":	"https://images.app.goo.gl/BBVy9gaPooA6dSVg7"},
{"id":139,"name":"African Leadership Academy",	"longitude":"-25.48117487", "latitude":	"28.04401927", "address":"ROLIHLAHLA AVENUE","image_link":	"https://images.app.goo.gl/7UzvPHXxpKuR7Ycz6"},
{"id":140,"name":"JAN KOTLOLO PRIMARY SCHOOL",	"longitude":"-25.48117487", "latitude":	"28.04401927", "address":"ROLIHLAHLA AVENUE","image_link":	"https://images.app.goo.gl/WSxEVT7GzC85eabB7"},
{"id":141,"name":"SEETSA-SA-KWEDI PRIMARY",	"longitude":"-25.48117487", "latitude":	"28.04401927", "address":"ROLIHLAHLA AVENUE","image_link":	"https://images.app.goo.gl/BBVy9gaPooA6dSVg7"},
{"id":142,"name":"MORETELE PRIMARY SCHOOL",	"longitude":"-25.48117487", "latitude":	"28.04401927", "address":"ROLIHLAHLA AVENUE","image_link":	"https://images.app.goo.gl/7UzvPHXxpKuR7Ycz6"},
{"id":143,"name":"MOTHEO PRIMARY SCHOOL",	"longitude":"-25.48117487", "latitude":	"28.04401927", "address":"ROLIHLAHLA AVENUE","image_link":	"https://images.app.goo.gl/WSxEVT7GzC85eabB7"},
{"id":144,"name":"MONONONG PRIMARY SCHOOL",	"longitude":"-25.48117487", "latitude":	"28.04401927", "address":"ROLIHLAHLA AVENUE","image_link":	"https://images.app.goo.gl/BBVy9gaPooA6dSVg7"},
{"id":145,"name":"BAJABULILE PRIMARY SCHOOL",	"longitude":"-25.48117487", "latitude":	"28.04401927", "address":"ROLIHLAHLA AVENUE","image_link":	"https://images.app.goo.gl/7UzvPHXxpKuR7Ycz6"},
{"id":146,"name":"ST FRANCIS PRIMARY SCHOOL",	"longitude":"-25.48117487", "latitude":	"28.04401927", "address":"ROLIHLAHLA AVENUE","image_link":	"https://images.app.goo.gl/WSxEVT7GzC85eabB7"},
{"id":147,"name":"TIAMOKO PRIMARY SCHOOL",	"longitude":"-25.48117487", "latitude":	"28.04401927", "address":"ROLIHLAHLA AVENUE","image_link":	"https://images.app.goo.gl/BBVy9gaPooA6dSVg7"},
{"id":148,"name":"SOSHANGAAN PRIMARY SCHOOL",	"longitude":"-25.48117487", "latitude":	"28.04401927", "address":"ROLIHLAHLA AVENUE","image_link":	"https://images.app.goo.gl/7UzvPHXxpKuR7Ycz6"},
{"id":149,"name":"THORNTREE PRIMARY SCHOOL",	"longitude":"-25.48117487", "latitude":	"28.04401927", "address":"ROLIHLAHLA AVENUE","image_link":	"https://images.app.goo.gl/WSxEVT7GzC85eabB7"},
{"id":150,"name":"MODIRI TECHNICAL SCHOOL",	"longitude":"-25.48117487", "latitude":	"28.04401927", "address":"ROLIHLAHLA AVENUE","image_link":	"https://images.app.goo.gl/WSxEVT7GzC85eabB7"},
{"id":153,"name":"BAJABULILE PRIMARY SCHOOL",	"longitude":"-25.48117487", "latitude":	"28.04401927", "address":"ROLIHLAHLA AVENUE","image_link":	"https://images.app.goo.gl/BBVy9gaPooA6dSVg7"},
{"id":154,"name":"African Leadership Academy",	"longitude":"-25.48117487", "latitude":	"28.04401927", "address":"ROLIHLAHLA AVENUE","image_link":	"https://images.app.goo.gl/7UzvPHXxpKuR7Ycz6"},
{"id":156,"name":"JAN KOTLOLO PRIMARY SCHOOL",	"longitude":"-25.48117487","latitude":	"28.04401927", "address":"ROLIHLAHLA AVENUE","image_link":	"https://images.app.goo.gl/WSxEVT7GzC85eabB7"},
{"id":157,"name":"SEETSA-SA-KWEDI PRIMARY",	"longitude":"-25.48117487", "latitude":	"28.04401927", "address":"ROLIHLAHLA AVENUE","image_link":	"https://images.app.goo.gl/BBVy9gaPooA6dSVg7"},
{"id":158,"name":"MORETELE PRIMARY SCHOOL",	"longitude":"-25.48117487", "latitude":	"28.04401927", "address":"ROLIHLAHLA AVENUE","image_link":	"https://images.app.goo.gl/7UzvPHXxpKuR7Ycz6"},
{"id":159,"name":"BAJABULILE PRIMARY SCHOOL",	"longitude":"-25.48117487", "latitude":	"28.04401927", "address":"ROLIHLAHLA AVENUE","image_link":	"https://images.app.goo.gl/WSxEVT7GzC85eabB7"},
{"id":160,"name":"ST FRANCIS PRIMARY SCHOOL",	"longitude":"-25.48117487", "latitude":	"28.04401927", "address":"ROLIHLAHLA AVENUE","image_link":	"https://images.app.goo.gl/BBVy9gaPooA6dSVg7"},
{"id":161,"name":"TIAMOKO PRIMARY SCHOOL",	"longitude":"-25.48117487", "latitude":	"28.04401927", "address":"ROLIHLAHLA AVENUE","image_link":	"https://images.app.goo.gl/7UzvPHXxpKuR7Ycz6"},
{"id":162,"name":"SOSHANGAAN PRIMARY SCHOOL",	"longitude":"-25.48117487", "latitude":	"28.04401927", "address":"ROLIHLAHLA AVENUE","image_link":	"https://images.app.goo.gl/WSxEVT7GzC85eabB7"},
{"id":163,"name":"THORNTREE PRIMARY SCHOOL",	"longitude":"-25.48117487", "latitude":	"28.04401927", "address":"ROLIHLAHLA","image_link":	"https://images.app.goo.gl/BBVy9gaPooA6dSVg7"},
{"id":164,"name":"TSHWANE CHRISTIAN SCHOOL",	"longitude":"-25.48117487", "latitude":	"28.04401927", "address":"ROLIHLAHLA AVENUE","image_link":	"https://images.app.goo.gl/7UzvPHXxpKuR7Ycz6"},
{"id":165,"name":"SEMPHATO PRIMARY SCHOOL",	"longitude":"-25.48117487", "latitude":	"28.04401927", "address":"ROLIHLAHLA AVENUE","image_link":	"https://images.app.goo.gl/WSxEVT7GzC85eabB7"},
{"id":166,"name":"MONONONG PRIMARY SCHOOL",	"longitude":"-25.48117487", "latitude":	"28.04401927", "address":"ROLIHLAHLA AVENUE","image_link":	"https://images.app.goo.gl/BBVy9gaPooA6dSVg7"},
{"id":167,"name":"UTHANDO PRIMARY SCHOOL",	"longitude":"-25.48117487", "latitude":	"28.04401927", "address":"ROLIHLAHLA AVENUE","image_link":	"https://images.app.goo.gl/7UzvPHXxpKuR7Ycz6"},
{"id":168,"name":"African Leadership Academy",	"longitude":"-25.48117487", "latitude":	"28.04401927", "address":"ROLIHLAHLA AVENUE","image_link":	"https://images.app.goo.gl/WSxEVT7GzC85eabB7"},
{"id":169,"name":"JAN KOTLOLO PRIMARY SCHOOL",	"longitude":"-25.48117487", "latitude":	"28.04401927", "address":"ROLIHLAHLA AVENUE","image_link":	"https://images.app.goo.gl/BBVy9gaPooA6dSVg7"},
{"id":170,"name":"SEETSA-SA-KWEDI PRIMARY",	"longitude":"-25.48117487", "latitude":	"28.04401927", "address":"ROLIHLAHLA AVENUE","image_link":	"https://images.app.goo.gl/7UzvPHXxpKuR7Ycz6"},
{"id":171,"name":"MORETELE PRIMARY SCHOOL",	"longitude":"-25.48117487", "latitude":	"28.04401927", "address":"ROLIHLAHLA AVENUE","image_link":	"https://images.app.goo.gl/WSxEVT7GzC85eabB7"},
{"id":172,"name":"MOTHEO PRIMARY SCHOOL",	"longitude":"-25.48117487", "latitude":	"28.04401927", "address":"ROLIHLAHLA AVENUE","image_link":	"https://images.app.goo.gl/BBVy9gaPooA6dSVg7"},
{"id":173,"name":"ST FRANCIS PRIMARY SCHOOL",	"longitude":"-25.48117487", "latitude":	"28.04401927", "address":"ROLIHLAHLA AVENUE","image_link":	"https://images.app.goo.gl/7UzvPHXxpKuR7Ycz6"},
{"id":174,"name":"MONONONG PRIMARY SCHOOL",	"longitude":"-25.48117487", "latitude":	"28.04401927", "address":"ROLIHLAHLA AVENUE","image_link":	"https://images.app.goo.gl/WSxEVT7GzC85eabB7"},
{"id":175,"name":"BAJABULILE PRIMARY SCHOOL",	"longitude":"-25.48117487", "latitude":	"28.04401927", "address":"ROLIHLAHLA AVENUE","image_link":	"https://images.app.goo.gl/BBVy9gaPooA6dSVg7"},
{"id":176,"name":"ST FRANCIS PRIMARY SCHOOL",	"longitude":"-25.48117487", "latitude":	"28.04401927", "address":"ROLIHLAHLA AVENUE","image_link":	"https://images.app.goo.gl/7UzvPHXxpKuR7Ycz6"},
{"id":177,"name":"TIAMOKO PRIMARY SCHOOL",	"longitude":"-25.48117487", "latitude":	"28.04401927", "address":"ROLIHLAHLA AVENUE","image_link":	"https://images.app.goo.gl/WSxEVT7GzC85eabB7"},
{"id":178,"name":"SOSHANGAAN PRIMARY SCHOOL",	"longitude":"-25.48117487", "latitude":	"28.04401927", "address":"ROLIHLAHLA AVENUE","image_link":	"https://images.app.goo.gl/BBVy9gaPooA6dSVg7"},
{"id":179,"name":"THORNTREE PRIMARY SCHOOL",	"longitude":"-25.48117487", "latitude":	"28.04401927", "address":"ROLIHLAHLA AVENUE","image_link":	"https://images.app.goo.gl/7UzvPHXxpKuR7Ycz6"},
{"id":180,"name":"TSHWANE CHRISTIAN SCHOOL",	"longitude":"-25.48117487", "latitude":	"28.04401927", "address":"ROLIHLAHLA AVENUE","image_link":	"https://images.app.goo.gl/WSxEVT7GzC85eabB7"},
{"id":181,"name":"SEMPHATO PRIMARY SCHOOL",	"longitude":"-25.48117487", "latitude":	"28.04401927", "address":"ROLIHLAHLA AVENUE","image_link":	"https://images.app.goo.gl/BBVy9gaPooA6dSVg7"},
{"id":182,"name":"MODIRI TECHNICAL SCHOOL",	"longitude":"-25.48117487", "latitude":	"28.04401927", "address":"ROLIHLAHLA AVENUE","image_link":	"https://images.app.goo.gl/7UzvPHXxpKuR7Ycz6"},
{"id":183,"name":"UTHANDO PRIMARY SCHOOL",	"longitude":"-25.48117487", "latitude":	"28.04401927", "address":"ROLIHLAHLA AVENUE","image_link":	"https://images.app.goo.gl/WSxEVT7GzC85eabB7"},
{"id":184,"name":"African Leadership Academy",	"longitude":"-25.48117487", "latitude":	"28.04401927", "address":"ROLIHLAHLA AVENUE","image_link":	"https://images.app.goo.gl/BBVy9gaPooA6dSVg7"},
{"id":185,"name":"JAN KOTLOLO PRIMARY SCHOOL",	"longitude":"-25.48117487", "latitude":	"28.04401927", "address":"ROLIHLAHLA AVENUE","image_link":	"https://images.app.goo.gl/7UzvPHXxpKuR7Ycz6"},
{"id":186,"name":"SEETSA-SA-KWEDI PRIMARY",	"longitude":"-25.48117487", "latitude":	"28.04401927", "address":"ROLIHLAHLA AVENUE","image_link":	"https://images.app.goo.gl/BBVy9gaPooA6dSVg7"},
{"id":187,"name":"NELLMAPIUS PRIMARY SCHOOL",	"longitude":"-25.48117487", "latitude":	"28.04401927", "address":"ROLIHLAHLA AVENUE","image_link":	"https://images.app.goo.gl/7UzvPHXxpKuR7Ycz6"},
{"id":188,"name":"MOTHEO PRIMARY SCHOOL",	"longitude":"-25.48117487", "latitude":	"28.04401927", "address":"ROLIHLAHLA AVENUE","image_link":	"https://images.app.goo.gl/WSxEVT7GzC85eabB7"},
{"id":189,"name":"ST FRANCIS PRIMARY SCHOOL",	"longitude":"-25.48117487", "latitude":	"28.04401927", "address":"ROLIHLAHLA AVENUE","image_link":	"https://images.app.goo.gl/BBVy9gaPooA6dSVg7"},
{"id":200,"name":"MORETELE PRIMARY SCHOOL",	"longitude":"-25.48117487", "latitude":	"28.04401927", "address":"ROLIHLAHLA AVENUE","image_link":	"https://images.app.goo.gl/7UzvPHXxpKuR7Ycz6"},
{"id":201,"name":"BAJABULILE PRIMARY SCHOOL",	"longitude":"-25.48117487", "latitude":	"28.04401927", "address":"ROLIHLAHLA AVENUE","image_link":	"https://images.app.goo.gl/WSxEVT7GzC85eabB7"},
{"id":202,"name":"MODIRI TECHNICAL SCHOOL",	"longitude":"-25.48117487", "latitude":	"28.04401927", "address":"ROLIHLAHLA AVENUE","image_link":	"https://images.app.goo.gl/BBVy9gaPooA6dSVg7"},
{"id":203,"name":"TIAMOKO PRIMARY SCHOOL",	"longitude":"-25.48117487", "latitude":	"28.04401927", "address":"ROLIHLAHLA AVENUE","image_link":	"https://images.app.goo.gl/7UzvPHXxpKuR7Ycz6"},
{"id":204,"name":"SOSHANGAAN PRIMARY SCHOOL",	"longitude":"-25.48117487", "latitude":	"28.04401927", "address":"ROLIHLAHLA AVENUE","image_link":	"https://images.app.goo.gl/WSxEVT7GzC85eabB7"},
    {"id":205,"name":"THORNTREE PRIMARY SCHOOL",	"longitude":"-25.48117487", "latitude":	"28.04401927", "address":"ROLIHLAHLA AVENUE","image_link":	"https://images.app.goo.gl/BBVy9gaPooA6dSVg7"},
        {"id":206,"name":"TSHWANE CHRISTIAN SCHOOL",	"longitude":"-25.48117487", "latitude":	"28.04401927", "address":"ROLIHLAHLA AVENUE","image_link":	"https://images.app.goo.gl/7UzvPHXxpKuR7Ycz6"},
            {"id":207	,"name":"SEMPHATO PRIMARY SCHOOL",	"longitude":"-25.48117487", "latitude":	"28.04401927", "address":"ROLIHLAHLA AVENUE","image_link":	"https://images.app.goo.gl/WSxEVT7GzC85eabB7"},
                {"id":208,"name":"MODIRI TECHNICAL SCHOOL",	"longitude":"-25.48117487", "latitude":	"28.04401927", "address":"ROLIHLAHLA AVENUE","image_link":	"https://images.app.goo.gl/BBVy9gaPooA6dSVg7"},
                    {"id":209,"name":"UTHANDO PRIMARY SCHOOL",	"longitude":"-25.48117487", "latitude":	"28.04401927", "address":"ROLIHLAHLA AVENUE","image_link":	"https://images.app.goo.gl/7UzvPHXxpKuR7Ycz6"},
                        {"id":210,"name":"African Leadership Academy",	"longitude":"-25.48117487", "latitude":	"28.04401927", "address":"ROLIHLAHLA AVENUE","image_link":	"https://images.app.goo.gl/WSxEVT7GzC85eabB7"},
                            {"id":211,"name":"JAN KOTLOLO PRIMARY SCHOOL",	"longitude":"-25.48117487",  "latitude":	"28.04401927", "address":"ROLIHLAHLA AVENUE","image_link":	"https://images.app.goo.gl/BBVy9gaPooA6dSVg7"},
                                {"id":212,"name":"SEETSA-SA-KWEDI PRIMARY",	"longitude":"-25.48117487", "latitude":	"28.04401927", "address":"ROLIHLAHLA AVENUE","image_link":	"https://images.app.goo.gl/7UzvPHXxpKuR7Ycz6"},
                                    {"id":213	,"name":"NELLMAPIUS PRIMARY SCHOOL",	"longitude":"-25.48117487", "latitude":	"28.04401927", "address":"ROLIHLAHLA AVENUE","image_link":	"https://images.app.goo.gl/BBVy9gaPooA6dSVg7"},
                                        {"id":214,"name":"MOTHEO PRIMARY SCHOOL",	"longitude":"-25.48117487", "latitude":	"28.04401927", "address":"ROLIHLAHLA AVENUE","image_link":	"https://images.app.goo.gl/7UzvPHXxpKuR7Ycz6"},
                                            {"id":215,"name":"ST FRANCIS PRIMARY SCHOOL",	"longitude":"-25.48117487", "latitude":	"28.04401927", "address":"ROLIHLAHLA AVENUE","image_link":	"https://images.app.goo.gl/BBVy9gaPooA6dSVg7"},
                                                {"id":216,"name":"MONONONG PRIMARY SCHOOL",	"longitude":"-25.48117487", "latitude":	"28.04401927", "address":"ROLIHLAHLA AVENUE","image_link":	"https://images.app.goo.gl/7UzvPHXxpKuR7Ycz6"},
                                                    {"id":217,"name":"BAJABULILE PRIMARY SCHOOL",	"longitude":"-25.48117487", "latitude":	"28.04401927", "address":"ROLIHLAHLA AVENUE","image_link":	"https://images.app.goo.gl/WSxEVT7GzC85eabB7"},
                                                        {"id":218,"name":"MODIRI TECHNICAL SCHOOL",	"longitude":"-25.48117487", "latitude":	"28.04401927", "address":"ROLIHLAHLA AVENUE","image_link":	"https://images.app.goo.gl/BBVy9gaPooA6dSVg7"},
                                                            {"id":219,"name":"TIAMOKO PRIMARY SCHOOL",	"longitude":"-25.48117487", "latitude":	"28.04401927", "address":"ROLIHLAHLA AVENUE","image_link":	"https://images.app.goo.gl/7UzvPHXxpKuR7Ycz6"},
                                                                {"id":220,"name":"SOSHANGAAN PRIMARY SCHOOL",	"longitude":"-25.48117487", "latitude":	"28.04401927", "address":"ROLIHLAHLA AVENUE","image_link":	"https://images.app.goo.gl/WSxEVT7GzC85eabB7"},
                                                                    {"id":221,"name":"THORNTREE PRIMARY SCHOOL",	"longitude":"-25.48117487", "latitude":	"28.04401927", "address":"ROLIHLAHLA AVENUE","image_link":	"https://images.app.goo.gl/BBVy9gaPooA6dSVg7"},
                                                                        {"id":222,"name":"TSHWANE CHRISTIAN SCHOOL",	"longitude":"-25.48117487", "latitude":	"28.04401927", "address":"ROLIHLAHLA AVENUE","image_link":	"https://images.app.goo.gl/7UzvPHXxpKuR7Ycz6"},
                                                                            {"id":223,"name":"SEMPHATO PRIMARY SCHOOL",	"longitude":"-25.48117487", "latitude":	"28.04401927", "address":"ROLIHLAHLA AVENUE","image_link":	"https://images.app.goo.gl/WSxEVT7GzC85eabB7"},
                                                                                {"id":224,"name":"MODIRI TECHNICAL SCHOOL",	"longitude":"-25.48117487", "latitude":	"28.04401927", "address":"ROLIHLAHLA AVENUE","image_link":	"https://images.app.goo.gl/BBVy9gaPooA6dSVg7"},
                                                                                    {"id":225,"name":"UTHANDO PRIMARY SCHOOL",	"longitude":"-25.48117487", "latitude":	"28.04401927", "address":"ROLIHLAHLA AVENUE","image_link":	"https://images.app.goo.gl/7UzvPHXxpKuR7Ycz6"},
                                                                                        {"id":226,"name":"African Leadership Academy",	"longitude":"-25.48117487", "latitude":	"28.04401927", "address":"ROLIHLAHLA AVENUE","image_link":	"https://images.app.goo.gl/BBVy9gaPooA6dSVg7"},
                                                                                            {"id":227,"name":"JAN KOTLOLO PRIMARY SCHOOL",	"longitude":"-25.48117487", "latitude":	"28.04401927", "address":"ROLIHLAHLA AVENUE","image_link":	"https://images.app.goo.gl/7UzvPHXxpKuR7Ycz6"},
{"id":228,"name":"SEETSA-SA-KWEDI PRIMARY",	"longitude":"-25.48117487", "latitude":	"28.04401927", "address":"ROLIHLAHLA AVENUE","image_link":	"https://images.app.goo.gl/WSxEVT7GzC85eabB7"},
{"id":229,"name":"NELLMAPIUS PRIMARY SCHOOL",	"longitude":"-25.48117487", "latitude":	"28.04401927", "address":"ROLIHLAHLA AVENUE","image_link":	"https://images.app.goo.gl/BBVy9gaPooA6dSVg7"},
{"id":230,"name":"MOTHEO PRIMARY SCHOOL",	"longitude":"-25.48117487", "latitude":	"28.04401927", "address":"ROLIHLAHLA AVENUE","image_link":	"https://images.app.goo.gl/7UzvPHXxpKuR7Ycz6"},
{"id":231,"name":"ST FRANCIS PRIMARY SCHOOL",	"longitude":"-25.48117487", "latitude":	"28.04401927", "address":"ROLIHLAHLA AVENUE","image_link":	"https://images.app.goo.gl/WSxEVT7GzC85eabB7"},
{"id":232,"name":"MONONONG PRIMARY SCHOOL",	"longitude":"-25.48117487", "latitude":	"28.04401927", "address":"ROLIHLAHLA AVENUE","image_link":	"https://images.app.goo.gl/BBVy9gaPooA6dSVg7"},
{"id":233,"name":"BAJABULILE PRIMARY SCHOOL",	"longitude":"-25.48117487", "latitude":	"28.04401927", "address":"ROLIHLAHLA AVENUE","image_link":	"https://images.app.goo.gl/7UzvPHXxpKuR7Ycz6"},
{"id":234,"name":"MORETELE PRIMARY SCHOOL",	"longitude":"-25.48117487", "latitude":	"28.04401927", "address":"ROLIHLAHLA AVENUE","image_link":	"https://images.app.goo.gl/WSxEVT7GzC85eabB7"},
{"id":235,"name":"TIAMOKO PRIMARY SCHOOL",	"longitude":"-25.48117487", "latitude":	"28.04401927", "address":"ROLIHLAHLA AVENUE","image_link":	"https://images.app.goo.gl/BBVy9gaPooA6dSVg7"},
{"id":236,"name":"SOSHANGAAN PRIMARY SCHOOL",	"longitude":"-25.48117487", "latitude":	"28.04401927", "address":"ROLIHLAHLA AVENUE","image_link":	"https://images.app.goo.gl/7UzvPHXxpKuR7Ycz6"},
{"id":237,"name":"THORNTREE PRIMARY SCHOOL",	"longitude":"-25.48117487", "latitude":	"28.04401927", "address":"ROLIHLAHLA AVENUE","image_link":	"https://images.app.goo.gl/WSxEVT7GzC85eabB7"},
{"id":238,"name":"TSHWANE CHRISTIAN SCHOOL",	"longitude":"-25.48117487", "latitude":	"28.04401927", "address":"ROLIHLAHLA AVENUE","image_link":	"https://images.app.goo.gl/BBVy9gaPooA6dSVg7"},
{"id":239,"name":"SEMPHATO PRIMARY SCHOOL",	"longitude":"-25.48117487", "latitude":	"28.04401927", "address":"ROLIHLAHLA AVENUE","image_link":	"https://images.app.goo.gl/7UzvPHXxpKuR7Ycz6"},
{"id":240,"name":"MODIRI TECHNICAL SCHOOL",	"longitude":"-25.48117487", "latitude":	"28.04401927", "address":"ROLIHLAHLA AVENUE","image_link":	"https://images.app.goo.gl/WSxEVT7GzC85eabB7"},
{"id":241,"name":"UTHANDO PRIMARY SCHOOL",	"longitude":"-25.48117487",  "latitude":	"28.04401927","address":"ROLIHLAHLA AVENUE","image_link":	"https://images.app.goo.gl/BBVy9gaPooA6dSVg7"},
{"id":242,"name":"African Leadership Academy",	"longitude":"-25.48117487", "latitude":	"28.04401927", "address":"ROLIHLAHLA AVENUE","image_link":	"https://images.app.goo.gl/7UzvPHXxpKuR7Ycz6"},
{"id":243,"name":"JAN KOTLOLO PRIMARY SCHOOL",	"longitude":"-25.48117487", "latitude":	"28.04401927", "address":"ROLIHLAHLA AVENUE","image_link":	"https://images.app.goo.gl/WSxEVT7GzC85eabB7"},
{"id":244,"name":"SEETSA-SA-KWEDI PRIMARY",	"longitude":"-25.48117487", "latitude":	"28.04401927", "address":"ROLIHLAHLA AVENUE","image_link":	"https://images.app.goo.gl/BBVy9gaPooA6dSVg7"},
{"id":245,"name":"NELLMAPIUS PRIMARY SCHOOL",	"longitude":"-25.48117487", "latitude":	"28.04401927", "address":"ROLIHLAHLA AVENUE","image_link":	"https://images.app.goo.gl/7UzvPHXxpKuR7Ycz6"},
{"id":246,"name":"MOTHEO PRIMARY SCHOOL",	"longitude":"-25.48117487", "latitude":	"28.04401927", "address":"ROLIHLAHLA AVENUE","image_link":	"https://images.app.goo.gl/WSxEVT7GzC85eabB7"},
{"id":247,"name":"ST FRANCIS PRIMARY SCHOOL",	"longitude":"-25.48117487", "latitude":	"28.04401927", "address":"ROLIHLAHLA AVENUE","image_link":	"https://images.app.goo.gl/BBVy9gaPooA6dSVg7"},
{"id":248,"name":"MORETELE PRIMARY SCHOOL",	"longitude":"-25.48117487", "latitude":	"28.04401927", "address":"ROLIHLAHLA AVENUE","image_link":	"https://images.app.goo.gl/7UzvPHXxpKuR7Ycz6"},
{"id":249,"name":"BAJABULILE PRIMARY SCHOOL",	"longitude":"-25.48117487", "latitude":	"28.04401927", "address":"ROLIHLAHLA AVENUE","image_link":	"https://images.app.goo.gl/WSxEVT7GzC85eabB7"},
{"id":250,"name":"MONONONG PRIMARY SCHOOL",	"longitude":"-25.48117487", "latitude":	"28.04401927", "address":"ROLIHLAHLA AVENUE","image_link":	"https://images.app.goo.gl/BBVy9gaPooA6dSVg7"},
{"id":251,"name":"TIAMOKO PRIMARY SCHOOL",	"longitude":"-25.48117487", "latitude":	"28.04401927", "address":"ROLIHLAHLA AVENUE","image_link":	"https://images.app.goo.gl/7UzvPHXxpKuR7Ycz6"},
{"id":252,"name":"SOSHANGAAN PRIMARY SCHOOL",	"longitude":"-25.48117487", "latitude":	"28.04401927", "address":"ROLIHLAHLA AVENUE","image_link":	"https://images.app.goo.gl/WSxEVT7GzC85eabB7"},
{"id":253,"name":"THORNTREE PRIMARY SCHOOL",	"longitude":"-25.48117487", "latitude":	"28.04401927", "address":"ROLIHLAHLA AVENUE","image_link":	"https://images.app.goo.gl/BBVy9gaPooA6dSVg7"},
{"id":254,"name":"TSHWANE CHRISTIAN SCHOOL",	"longitude":"-25.48117487", "latitude":	"28.04401927", "address":"ROLIHLAHLA AVENUE","image_link":	"https://images.app.goo.gl/7UzvPHXxpKuR7Ycz6"},
{"id":256,"name":"SEMPHATO PRIMARY SCHOOL",	"longitude":"-25.48117487", "latitude":	"28.04401927", "address":"ROLIHLAHLA AVENUE","image_link":	"https://images.app.goo.gl/WSxEVT7GzC85eabB7"},
{"id":257,"name":"MODIRI TECHNICAL SCHOOL",	"longitude":"-25.48117487", "latitude":	"28.04401927", "address":"ROLIHLAHLA AVENUE","image_link":	"https://images.app.goo.gl/BBVy9gaPooA6dSVg7"},
{"id":258,"name":"UTHANDO PRIMARY SCHOOL",	"longitude":"-25.48117487", "latitude":	"28.04401927", "address":"ROLIHLAHLA AVENUE","image_link":	"https://images.app.goo.gl/7UzvPHXxpKuR7Ycz6"},
{"id":259,"name":"African Leadership Academy",	"longitude":"-25.48117487", "latitude":	"28.04401927", "address":"ROLIHLAHLA AVENUE","image_link":	"https://images.app.goo.gl/BBVy9gaPooA6dSVg7"},
{"id":260,"name":"JAN KOTLOLO PRIMARY SCHOOL",	"longitude":"-25.48117487", "latitude":	"28.04401927", "address":"ROLIHLAHLA AVENUE","image_link":	"https://images.app.goo.gl/BBVy9gaPooA6dSVg7"},
{"id":261,"name":"SEETSA-SA-KWEDI PRIMARY",	"longitude":"-25.48117487", "latitude":	"28.04401927", "address":"ROLIHLAHLA AVENUE","image_link":	"https://images.app.goo.gl/WSxEVT7GzC85eabB7"},
{"id":262,"name":"Rust",	"longitude":"-25.48117487", "latitude":	"28.04401927", "address":"ROLIHLAHLA AVENUE","image_link":	"https://images.app.goo.gl/BBVy9gaPooA6dSVg7"},
{"id":263,"name":"MOTHEO PRIMARY SCHOOL",	"longitude":"-25.48117487", "latitude":	"28.04401927", "address":"ROLIHLAHLA AVENUE","image_link":	"https://images.app.goo.gl/7UzvPHXxpKuR7Ycz6"},
{"id":264,"name":"ST FRANCIS PRIMARY SCHOOL",	"longitude":"-25.48117487", "latitude":	"28.04401927", "address":"ROLIHLAHLA AVENUE","image_link":	"https://images.app.goo.gl/WSxEVT7GzC85eabB7"},
{"id":265,"name":"MONONONG PRIMARY SCHOOL",	"longitude":"-25.48117487", "latitude":	"28.04401927", "address":"ROLIHLAHLA AVENUE","image_link":	"https://images.app.goo.gl/BBVy9gaPooA6dSVg7"},
{"id":266,"name":"MODIRI TECHNICAL SCHOOL",	"longitude":"-25.48117487", "latitude":	"28.04401927", "address":"ROLIHLAHLA AVENUE","image_link":	"https://images.app.goo.gl/7UzvPHXxpKuR7Ycz6"},
{"id":267,"name":"UTHANDO PRIMARY SCHOOL",	"longitude":"-25.48117487", "latitude":	"28.04401927", "address":"ROLIHLAHLA AVENUE","image_link":	"https://images.app.goo.gl/WSxEVT7GzC85eabB7"},
{"id":268,"name":"TIAMOKO PRIMARY SCHOOL",	"longitude":"-25.48117487", "latitude":	"28.04401927", "address":"ROLIHLAHLA AVENUE","image_link":	"https://images.app.goo.gl/BBVy9gaPooA6dSVg7"},
{"id":269,"name":"SOSHANGAAN PRIMARY SCHOOL",	"longitude":"-25.48117487", "latitude":	"28.04401927", "address":"ROLIHLAHLA AVENUE","image_link":	"https://images.app.goo.gl/7UzvPHXxpKuR7Ycz6"},
{"id":270,"name":"MORETELE PRIMARY SCHOOL",	"longitude":"-25.48117487", "latitude":	"28.04401927", "address":"ROLIHLAHLA AVENUE","image_link":	"https://images.app.goo.gl/WSxEVT7GzC85eabB7"},
{"id":271,"name":"BAJABULILE PRIMARY SCHOOL",	"longitude":"-25.48117487", "latitude":	"28.04401927", "address":"ROLIHLAHLA AVENUE","image_link":	"https://images.app.goo.gl/BBVy9gaPooA6dSVg7"},
{"id":272,"name":"ST FRANCIS PRIMARY SCHOOL",	"longitude":"-25.48117487", "latitude":	"28.04401927", "address":"ROLIHLAHLA AVENUE","image_link":	"https://images.app.goo.gl/7UzvPHXxpKuR7Ycz6"},
{"id":273,"name":"TIAMOKO PRIMARY SCHOOL",	"longitude":"-25.48117487", "latitude":	"28.04401927", "address":"ROLIHLAHLA AVENUE","image_link":	"https://images.app.goo.gl/WSxEVT7GzC85eabB7"},
{"id":274,"name":"SOSHANGAAN PRIMARY SCHOOL",	"longitude":"-25.48117487", "latitude":	"28.04401927", "address":"ROLIHLAHLA AVENUE","image_link":	"https://images.app.goo.gl/BBVy9gaPooA6dSVg7"},
{"id":275,"name":"THORNTREE PRIMARY SCHOOL",	"longitude":"-25.48117487", "latitude":	"28.04401927", "address":"ROLIHLAHLA AVENUE","image_link":	"https://images.app.goo.gl/7UzvPHXxpKuR7Ycz6"},
{"id":276,"name":"MONONONG PRIMARY SCHOOL",	"longitude":"-25.48117487", "latitude":	"28.04401927", "address":"ROLIHLAHLA AVENUE","image_link":	"https://images.app.goo.gl/WSxEVT7GzC85eabB7"},
{"id":277,"name":"SEMPHATO PRIMARY SCHOOL",	"longitude":"-25.48117487", "latitude":	"28.04401927", "address":"ROLIHLAHLA AVENUE","image_link":	"https://images.app.goo.gl/BBVy9gaPooA6dSVg7"},
{"id":278,"name":"MODIRI TECHNICAL SCHOOL",	"longitude":"-25.48117487", "latitude":	"28.04401927", "address":"ROLIHLAHLA AVENUE","image_link":	"https://images.app.goo.gl/7UzvPHXxpKuR7Ycz6"},
{"id":279,"name":"UTHANDO PRIMARY SCHOOL",	"longitude":"-25.48117487", "latitude":	"28.04401927", "address":"ROLIHLAHLA AVENUE","image_link":	"https://images.app.goo.gl/WSxEVT7GzC85eabB7"},
{"id":280,"name":"African Leadership Academy",	"longitude":"-25.48117487", "latitude":	"28.04401927", "address":"ROLIHLAHLA AVENUE","image_link":	"https://images.app.goo.gl/BBVy9gaPooA6dSVg7"},
{"id":281,"name":"JAN KOTLOLO PRIMARY SCHOOL",	"longitude":"-25.48117487", "latitude":	"28.04401927", "address":"ROLIHLAHLA AVENUE","image_link":	"https://images.app.goo.gl/7UzvPHXxpKuR7Ycz6"},
{"id":282,"name":"SEETSA-SA-KWEDI PRIMARY",	"longitude":"-25.48117487", "latitude":	"28.04401927", "address":"ROLIHLAHLA AVENUE","image_link":	"https://images.app.goo.gl/WSxEVT7GzC85eabB7"},
{"id":283,"name":"NELLMAPIUS PRIMARY SCHOOL",	"longitude":"-25.48117487", "latitude":	"28.04401927", "address":"ROLIHLAHLA AVENUE","image_link":	"https://images.app.goo.gl/BBVy9gaPooA6dSVg7"},
{"id":284,"name":"ST FRANCIS PRIMARY SCHOOL",	"longitude":"-25.48117487", "latitude":	"28.04401927", "address":"ROLIHLAHLA AVENUE","image_link":	"https://images.app.goo.gl/WSxEVT7GzC85eabB7"},
{"id":286,"name":"MORETELE PRIMARY SCHOOL",	"longitude":"-25.48117487", "latitude":	"28.04401927", "address":"ROLIHLAHLA AVENUE","image_link":	"https://images.app.goo.gl/BBVy9gaPooA6dSVg7"},
{"id":287,"name":"BAJABULILE PRIMARY SCHOOL",	"longitude":"-25.48117487", "latitude":	"28.04401927", "address":"ROLIHLAHLA AVENUE","image_link":	"https://images.app.goo.gl/7UzvPHXxpKuR7Ycz6"},
{"id":288,"name":"UTHANDO PRIMARY SCHOOL",	"longitude":"-25.48117487", "latitude":	"28.04401927", "address":"ROLIHLAHLA AVENUE","image_link":	"https://images.app.goo.gl/WSxEVT7GzC85eabB7"},
{"id":289,"name":"TIAMOKO PRIMARY SCHOOL",	"longitude":"-25.48117487", "latitude":	"28.04401927", "address":"ROLIHLAHLA AVENUE","image_link":	"https://images.app.goo.gl/BBVy9gaPooA6dSVg7"},
{"id":290,"name":"SOSHANGAAN PRIMARY SCHOOL",	"longitude":"-25.48117487", "latitude":	"28.04401927", "address":"ROLIHLAHLA AVENUE","image_link":	"https://images.app.goo.gl/7UzvPHXxpKuR7Ycz6"},
{"id":291,"name":"THORNTREE PRIMARY SCHOOL",	"longitude":"-25.48117487", "latitude":	"28.04401927", "address":"ROLIHLAHLA AVENUE","image_link":	"https://images.app.goo.gl/WSxEVT7GzC85eabB7"},
{"id":292,"name":"TSHWANE CHRISTIAN SCHOOL",	"longitude":"-25.48117487", "latitude":	"28.04401927", "address":"ROLIHLAHLA AVENUE","image_link":	"https://images.app.goo.gl/BBVy9gaPooA6dSVg7"},
{"id":293,"name":"SEMPHATO PRIMARY SCHOOL",	"longitude":"-25.48117487", "latitude":	"28.04401927", "address":"ROLIHLAHLA AVENUE","image_link":	"https://images.app.goo.gl/7UzvPHXxpKuR7Ycz6"},
{"id":294,"name":"MODIRI TECHNICAL SCHOOL",	"longitude":"-25.48117487", "latitude":	"28.04401927", "address":"ROLIHLAHLA AVENUE","image_link":	"https://images.app.goo.gl/WSxEVT7GzC85eabB7"},
{"id":295,"name":"UTHANDO PRIMARY SCHOOL",	"longitude":"-25.48117487", "latitude":	"28.04401927", "address":"ROLIHLAHLA AVENUE","image_link":	"https://images.app.goo.gl/BBVy9gaPooA6dSVg7"},
{"id":296,"name":"African Leadership Academy",	"longitude":"-25.48117487", "latitude":	"28.04401927", "address":"ROLIHLAHLA AVENUE","image_link":	"https://images.app.goo.gl/7UzvPHXxpKuR7Ycz6"},
{"id":297,"name":"Aurora Private School",	"longitude":"-25.48117487", "latitude":	"28.04401927", "address":"Randburg","image_link":	"https://images.app.goo.gl/7UzvPHXxpKuR7Ycz6"},
{"id":298,"name":"Athlone Boys High School",	"longitude":"-25.48117487", "latitude":	"28.04401927", "address":"Johannesburg","image_link":	"https://images.app.goo.gl/BBVy9gaPooA6dSVg7"},
{"id":299,"name":"Allen Glen High School",	"longitude":"-25.", "latitude":	"28.04401927", "address":"Roodepoort","image_link":	"https://images.app.goo.gl/7UzvPHXxpKuR7Ycz6"},
{"id":300,"name":"African Leadership Academy",	"longitude":"-25.48117487", "latitude":	"28.04401927", "address":"Honeydew","image_link":	"https://images.app.goo.gl/BBVy9gaPooA6dSVg7"}]
